{
    "type": "FeatureCollection",
    "features": [
        {
            "type": "Feature",
            "properties": {
                "name": "Zuiderdal",
                "zoomsize": 1,
                "stroke": "green"
            },
            "geometry": {
                "type": "Point",
                "coordinates": [ -63.177547, 55.987917 ]
            }
        },
        {
            "type": "Feature",
            "properties": {
                "name": "Castelmar",
                "zoomsize": 1,
                "stroke": "green"
            },
            "geometry": {
                "type": "Point",
                "coordinates": [ -66.152433, 45.986521 ]
            }
        },
        {
            "type": "Feature",
            "properties": {
                "name": "Sonnau",
                "zoomsize": 1,
                "stroke": "green"
            },
            "geometry": {
                "type": "Point",
                "coordinates": [ -51.592948, 55.663843 ]
            }
        },
        {
            "type": "Feature",
            "properties": {
                "name": "Ekkia",
                "zoomsize": 1,
                "stroke": "green"
            },
            "geometry": {
                "type": "Point",
                "coordinates": [ 145.110416, -19.885083 ]
            }
        },
        {
            "type": "Feature",
            "properties": {
                "name": "Verdain",
                "zoomsize": 1,
                "stroke": "green"
            },
            "geometry": {
                "type": "Point",
                "coordinates": [ -66.504722, 50.542343 ]
            }
        },
        {
            "type": "Feature",
            "properties": {
                "name": "Naokawa",
                "zoomsize": 1,
                "stroke": "green"
            },
            "geometry": {
                "type": "Point",
                "coordinates": [ 100.107448, -7.407557 ]
            }
        },
        {
            "type": "Feature",
            "properties": {
                "stroke": "green",
                "name": "Ceolmara"
            },
            "geometry": {
                "type": "Point",
                "coordinates": [ -84.382056, 54.044907 ]
            }
        },
        {
            "type": "Feature",
            "properties": {
                "stroke": "green",
                "name": "Soleira"
            },
            "geometry": {
                "type": "Point",
                "coordinates": [ -57.651003, 44.050097 ]
            }
        },
        {
            "type": "Feature",
            "properties": {
                "stroke": "green",
                "name": "Harp's Island"
            },
            "geometry": {
                "type": "Point",
                "coordinates": [ 124.245552, -2.125511 ]
            }
        },
        {
            "type": "Feature",
            "properties": {
                "stroke": "green",
                "name": "Eirlandie"
            },
            "geometry": {
                "type": "Point",
                "coordinates": [ -76.867081, 60.84498 ]
            }
        }
    ]
}
