{"type":"FeatureCollection","features":[{"type":"Feature","properties":{"name":"Itoba Territory","priority":2,"init":4,"terminate":7},"geometry":{"type":"Point","coordinates":[102.048937,-5.226254]}},{"type":"Feature","properties":{"name":"Zuiver Territory","priority":2,"init":4,"terminate":7.5},"geometry":{"type":"Point","coordinates":[103.380554,-12.349693]}},{"type":"Feature","properties":{"name":"Mannesland","priority":2,"init":5.2,"terminate":7.5},"geometry":{"type":"Point","coordinates":[108.670034,-14.758758]}},{"type":"Feature","properties":{"name":"East Naokawa Territory","priority":2,"init":4,"terminate":7},"geometry":{"type":"Point","coordinates":[122.43008,-5.226254]}},{"type":"Feature","properties":{"name":"Guusland","priority":2,"init":5.2,"terminate":7.5},"geometry":{"type":"Point","coordinates":[116.659738,-0.905723]}},{"type":"Feature","properties":{"name":"Awaniwhenua","priority":2,"terminate":7.5,"init":5.2},"geometry":{"type":"Point","coordinates":[111.592194,-15.971419]}},{"type":"Feature","properties":{"name":"New Rathaven","priority":1,"init":5.2,"terminate":7.5},"geometry":{"type":"Point","coordinates":[113.145748,-12.313557]}},{"type":"Feature","properties":{"name":"Sterringen","priority":2,"init":5.2,"terminate":7},"geometry":{"type":"Point","coordinates":[111.074343,-5.925722]}},{"type":"Feature","properties":{"name":"Klaasingen","priority":2,"init":5.2,"terminate":7.5},"geometry":{"type":"Point","coordinates":[106.302714,1.535354]}},{"type":"Feature","properties":{"name":"Owoudran","priority":2,"init":5.2,"terminate":7},"geometry":{"type":"Point","coordinates":[117.251568,-11.879541]}},{"type":"Feature","properties":{"name":"Hanaqlanza-suyu","priority":1,"init":6.5,"terminate":8.5},"geometry":{"type":"Point","coordinates":[155.632601,-20.959753]}},{"type":"Feature","properties":{"name":"Madelon Islands Territory","priority":1,"init":4,"terminate":7.2},"geometry":{"type":"Point","coordinates":[85.811918,-28.805871]}},{"type":"Feature","properties":{"name":"Chapihanaq-suyu","priority":2,"init":6.5,"terminate":8.5},"geometry":{"type":"Point","coordinates":[154.300724,-21.740269]}},{"type":"Feature","properties":{"name":"Ninapuerto-suyu","priority":2,"init":6.5,"terminate":8.5},"geometry":{"type":"Point","coordinates":[155.81218,-16.88382]}},{"type":"Feature","properties":{"name":"Nortepaya-suyu","priority":2,"init":6.5,"terminate":8.5},"geometry":{"type":"Point","coordinates":[156.695109,-18.622515]}},{"type":"Feature","properties":{"name":"(Naokawa)","priority":2,"init":4,"terminate":7.2},"geometry":{"type":"Point","coordinates":[85.842761,-29.99391]}},{"type":"Feature","properties":{"name":"East Naokawa Territory","init":4,"terminate":7,"priority":2},"geometry":{"type":"Point","coordinates":[124.649115,-16.339254]}}]}