{"type":"FeatureCollection","features":[{"type":"Feature","properties":{"name":"Itoba Territory","size":10},"geometry":{"type":"Point","coordinates":[102.048937,-5.226254]}},{"type":"Feature","properties":{"size":10},"geometry":{"type":"Point","coordinates":[103.380554,-12.349693]}},{"type":"Feature","properties":{"name":"Mannesland","size":4},"geometry":{"type":"Point","coordinates":[108.670034,-14.758758]}},{"type":"Feature","properties":{"name":"East Naokawa Territory","size":10},"geometry":{"type":"Point","coordinates":[122.43008,-5.226254]}},{"type":"Feature","properties":{"name":"Guusland","size":3},"geometry":{"type":"Point","coordinates":[116.659738,-0.905723]}},{"type":"Feature","properties":{"name":"Awaniwhenua","size":4},"geometry":{"type":"Point","coordinates":[111.592194,-15.971419]}},{"type":"Feature","properties":{"name":"New Rathaven","size":5},"geometry":{"type":"Point","coordinates":[113.145748,-12.313557]}},{"type":"Feature","properties":{"name":"Sterringen","size":5},"geometry":{"type":"Point","coordinates":[111.074343,-5.925722]}},{"type":"Feature","properties":{"name":"KLaasingen","size":4},"geometry":{"type":"Point","coordinates":[106.302714,1.535354]}},{"type":"Feature","properties":{"name":"Owoudran","size":5},"geometry":{"type":"Point","coordinates":[117.251568,-11.879541]}},{"type":"Feature","properties":{"size":2},"geometry":{"type":"Point","coordinates":[155.632601,-20.959753]}},{"type":"Feature","properties":{"name":"Madelon Islands Territory (Naokawa)","size":10},"geometry":{"type":"Point","coordinates":[85.73694,-25.98366]}},{"type":"Feature","properties":{"name":"Chapihanaq-suyu","size":2},"geometry":{"type":"Point","coordinates":[154.300724,-21.740269]}},{"type":"Feature","properties":{"name":"Ninapuerto-suyu","size":1},"geometry":{"type":"Point","coordinates":[155.81218,-16.88382]}},{"type":"Feature","properties":{"name":"Nortepaya-suyu","size":1},"geometry":{"type":"Point","coordinates":[156.695109,-18.622515]}}]}