{"type":"FeatureCollection","features":[{"type":"Feature","geometry":{"type":"Point","coordinates":[102.048937,-5.226254]},"properties":{"name":"Itoba Territory","priority":2,"init":4,"terminate":7}},{"type":"Feature","geometry":{"type":"Point","coordinates":[103.380554,-12.349693]},"properties":{"name":"Zuiver Territory","priority":2,"init":4,"terminate":7.5}},{"type":"Feature","geometry":{"type":"Point","coordinates":[108.670034,-14.758758]},"properties":{"name":"Mannesland","priority":2,"init":5.2,"terminate":7.5}},{"type":"Feature","geometry":{"type":"Point","coordinates":[122.43008,-5.226254]},"properties":{"name":"East Naokawa Territory","priority":2,"init":4,"terminate":7}},{"type":"Feature","geometry":{"type":"Point","coordinates":[116.659738,-0.905723]},"properties":{"name":"Guusland","priority":2,"init":5.2,"terminate":7.5}},{"type":"Feature","geometry":{"type":"Point","coordinates":[111.557293,-16.532795]},"properties":{"name":"Awaniwhenua","priority":2,"terminate":7.5,"init":5.2}},{"type":"Feature","geometry":{"type":"Point","coordinates":[113.145748,-12.313557]},"properties":{"name":"New Rathaven","priority":1,"init":5.2,"terminate":7.5}},{"type":"Feature","geometry":{"type":"Point","coordinates":[111.074343,-5.925722]},"properties":{"name":"Sterringen","priority":2,"init":5.2,"terminate":7}},{"type":"Feature","geometry":{"type":"Point","coordinates":[106.302714,1.535354]},"properties":{"name":"Klaasingen","priority":2,"init":5.2,"terminate":7.5}},{"type":"Feature","geometry":{"type":"Point","coordinates":[117.251568,-11.879541]},"properties":{"name":"Owoudran","priority":2,"init":5.2,"terminate":7}},{"type":"Feature","geometry":{"type":"Point","coordinates":[155.588486,-23.791355]},"properties":{"name":"Hanaqlanza-suyu","priority":1,"init":5.7,"terminate":8.5}},{"type":"Feature","geometry":{"type":"Point","coordinates":[85.811918,-28.805871]},"properties":{"name":"Madelon Islands Territory","priority":1,"init":4,"terminate":7.2,"subtitle":"(Naokawa)"}},{"type":"Feature","geometry":{"type":"Point","coordinates":[154.517475,-19.873375]},"properties":{"name":"Chapihanaq-suyu","priority":2,"init":6,"terminate":8.5}},{"type":"Feature","geometry":{"type":"Point","coordinates":[159.464165,-18.122681]},"properties":{"name":"Ninapuerto-suyu","priority":2,"init":6,"terminate":8.5}},{"type":"Feature","geometry":{"type":"Point","coordinates":[153.209737,-16.637026]},"properties":{"name":"Nortepaya-suyu","priority":2,"init":5.7,"terminate":8.5}},{"type":"Feature","geometry":{"type":"Point","coordinates":[124.649115,-16.339254]},"properties":{"name":"East Naokawa Territory","init":4,"terminate":7,"priority":2}},{"type":"Feature","geometry":{"type":"Point","coordinates":[167.014899,-14.057271]},"properties":{"subtitle":"(Ekkia)","init":6,"terminate":8.5,"priority":2,"name":"Antiwasi-suyu"}},{"type":"Feature","geometry":{"type":"Point","coordinates":[151.203347,-23.352216]},"properties":{"init":6,"terminate":8.5,"priority":2,"name":"Qillupampa-suyu"}},{"type":"Feature","geometry":{"type":"Point","coordinates":[149.416973,-23.223161]},"properties":{"init":6,"terminate":8.5,"priority":2,"name":"Aqupampa-suyu"}},{"type":"Feature","geometry":{"type":"Point","coordinates":[157.719493,-28.32523]},"properties":{"subtitle":"(Ekkia)","init":6,"terminate":8.5,"priority":2,"name":"Islamarca-suyu"}},{"type":"Feature","geometry":{"type":"Point","coordinates":[157.837851,-21.745469]},"properties":{"init":6,"terminate":8.5,"priority":2,"name":"Sachachak-suyu"}},{"type":"Feature","geometry":{"type":"Point","coordinates":[144.531415,-28.731922]},"properties":{"init":5.7,"terminate":8.5,"priority":2,"name":"Pimachanca-suyu"}},{"type":"Feature","geometry":{"type":"Point","coordinates":[145.073349,-25.208698]},"properties":{"init":6,"terminate":8.5,"priority":2,"name":"Yauchaq-suyu"}},{"type":"Feature","geometry":{"type":"Point","coordinates":[150.12162,-45.483805]},"properties":{"subtitle":"(Ekkia)","init":6,"terminate":8.5,"name":"Hielo-suyu","priority":2}},{"type":"Feature","geometry":{"type":"Point","coordinates":[156.173025,-18.075971]},"properties":{"init":6,"terminate":8.5,"priority":2,"name":"Angipani-suyu"}},{"type":"Feature","geometry":{"type":"Point","coordinates":[146.507576,-36.771867]},"properties":{"subtitle":"(Ekkia)","init":6,"terminate":8.5,"priority":2,"name":"Granayuq-suyu"}},{"type":"Feature","geometry":{"type":"Point","coordinates":[161.560141,-14.636009]},"properties":{"subtitle":"(Ekkia)","init":6,"terminate":8.5,"priority":2,"name":"Warapuerto-suyu"}},{"type":"Feature","geometry":{"type":"Point","coordinates":[148.907028,-26.347345]},"properties":{"init":6,"terminate":8.5,"priority":2,"name":"Huanaqauri-suyu"}},{"type":"Feature","geometry":{"type":"Point","coordinates":[142.765113,-32.766945]},"properties":{"init":6,"terminate":8.5,"priority":2,"name":"Surayllu-suyu"}},{"type":"Feature","geometry":{"type":"Point","coordinates":[152.024535,-26.624765]},"properties":{"priority":2,"init":6,"terminate":8.5,"name":"Malarumi-suyu"}},{"type":"Feature","geometry":{"type":"Point","coordinates":[152.95243,-22.184134]},"properties":{"init":6,"terminate":8.5,"priority":2,"name":"Qumirpampa-suyu"}},{"type":"Feature","geometry":{"type":"Point","coordinates":[155.900435,-26.364602]},"properties":{"priority":2,"init":6,"terminate":8.5,"name":"Makihawa-suyu"}}]}